{
"type": "FeatureCollection",
"name": "schwimmbad_coord",
"features": [
{ "type": "Feature", "id": 1, "properties": { "name": "Bad am Spreewaldplatz", "address": "Wiener Straße 59h, 10999 Berlin, Germany" }, "geometry": { "type": "Point", "coordinates": [ 13.4319539, 52.4980339 ] } },
{ "type": "Feature", "id": 2, "properties": { "name": "Badeschiff Berlin", "address": "Eichenstraße 4, 12435 Berlin, Germany" }, "geometry": { "type": "Point", "coordinates": [ 13.4532015, 52.4964226 ] } },
{ "type": "Feature", "id": 3, "properties": { "name": "Baerwaldbad", "address": "Baerwaldstraße 64-67, 10961 Berlin, Germany" }, "geometry": { "type": "Point", "coordinates": [ 13.4041727, 52.494529 ] } },
{ "type": "Feature", "id": 4, "properties": { "name": "Freibad Halensee", "address": "Koenigsallee 5b, 14193 Berlin, Germany" }, "geometry": { "type": "Point", "coordinates": [ 13.2827567, 52.493826299999988 ] } },
{ "type": "Feature", "id": 5, "properties": { "name": "Freibad Jungfernheide", "address": "Jungfernheideweg 60, 13629 Berlin, Germany" }, "geometry": { "type": "Point", "coordinates": [ 13.27435, 52.54378 ] } },
{ "type": "Feature", "id": 6, "properties": { "name": "Freibad Lübars", "address": "Am Freibad 9, 13469 Berlin, Germany" }, "geometry": { "type": "Point", "coordinates": [ 13.33563, 52.61819 ] } },
{ "type": "Feature", "id": 7, "properties": { "name": "Freibad Orankesee", "address": "Gertrudstraße 7, 13053 Berlin, Germany" }, "geometry": { "type": "Point", "coordinates": [ 13.4841, 52.55015 ] } },
{ "type": "Feature", "id": 8, "properties": { "name": "Kinderbad Monbijou", "address": "Oranienburger Str. 78, 10178 Berlin, Germany" }, "geometry": { "type": "Point", "coordinates": [ 13.3974895, 52.5237993 ] } },
{ "type": "Feature", "id": 9, "properties": { "name": "Kinderbad Platsch", "address": "Max-Herrmann-Straße 7, 12687 Berlin, Germany" }, "geometry": { "type": "Point", "coordinates": [ 13.56229, 52.55218 ] } },
{ "type": "Feature", "id": 10, "properties": { "name": "Kleine Schwimmhalle Wuhlheide", "address": "An Der Wuhlheide 161, 12459 Berlin, Germany" }, "geometry": { "type": "Point", "coordinates": [ 13.5402748, 52.4605842 ] } },
{ "type": "Feature", "id": 11, "properties": { "name": "Kombibad Gropiusstadt", "address": "Lipschitzallee 27-33, 12351 Berlin, Germany" }, "geometry": { "type": "Point", "coordinates": [ 13.4697445, 52.427849 ] } },
{ "type": "Feature", "id": 12, "properties": { "name": "Kombibad Mariendorf", "address": "Ankogelweg 95, 12107 Berlin, Germany" }, "geometry": { "type": "Point", "coordinates": [ 13.4026454, 52.4205096 ] } },
{ "type": "Feature", "id": 13, "properties": { "name": "Kombibad Seestraße", "address": "Seestraße 80, 13347 Berlin, Germany" }, "geometry": { "type": "Point", "coordinates": [ 13.363945, 52.557347 ] } },
{ "type": "Feature", "id": 14, "properties": { "name": "Kombibad Spandau Süd", "address": "Gatower Str. 19, 13595 Berlin, Germany" }, "geometry": { "type": "Point", "coordinates": [ 13.188151, 52.518246299999987 ] } },
{ "type": "Feature", "id": 15, "properties": { "name": "Paracelsus Bad", "address": "Roedernallee 200-204, 13407 Berlin, Germany" }, "geometry": { "type": "Point", "coordinates": [ 13.34716, 52.57557 ] } },
{ "type": "Feature", "id": 16, "properties": { "name": "Schwimmhalle Allendeviertel", "address": "Pablo-Neruda-Straße 5, 12559 Berlin, Germany" }, "geometry": { "type": "Point", "coordinates": [ 13.58789, 52.4426 ] } },
{ "type": "Feature", "id": 17, "properties": { "name": "Schwimmhalle Anton-Saefkow-Platz", "address": "Anton-Saefkow-Platz 1, 10369 Berlin, Germany" }, "geometry": { "type": "Point", "coordinates": [ 13.4721179, 52.5309589 ] } },
{ "type": "Feature", "id": 18, "properties": { "name": "Schwimmhalle Baumschulenweg", "address": "Neue Krugallee 209, 12437 Berlin, Germany" }, "geometry": { "type": "Point", "coordinates": [ 13.4938401, 52.47031 ] } },
{ "type": "Feature", "id": 19, "properties": { "name": "Schwimmhalle Buch", "address": "Wolfgang-Heinz-Straße 41, 13125 Berlin, Germany" }, "geometry": { "type": "Point", "coordinates": [ 13.4919278, 52.6284685 ] } },
{ "type": "Feature", "id": 20, "properties": { "name": "Schwimmhalle Ernst-Thälmann-Park", "address": "Lilli-Henoch-Straße 20, 10405 Berlin, Germany" }, "geometry": { "type": "Point", "coordinates": [ 13.4338276, 52.5408844 ] } },
{ "type": "Feature", "id": 21, "properties": { "name": "Schwimmhalle Finckensteinallee", "address": "Finckensteinallee 73, 12205 Berlin, Germany" }, "geometry": { "type": "Point", "coordinates": [ 13.297991, 52.4319196 ] } },
{ "type": "Feature", "id": 22, "properties": { "name": "Schwimmhalle Fischerinsel", "address": "Fischerinsel 11, 10179 Berlin, Germany" }, "geometry": { "type": "Point", "coordinates": [ 13.4044542, 52.512361899999988 ] } },
{ "type": "Feature", "id": 23, "properties": { "name": "Schwimmhalle Helmut Behrendt", "address": "Helene-Weigel-Platz 9, 12681 Berlin, Germany" }, "geometry": { "type": "Point", "coordinates": [ 13.541999, 52.5281448 ] } },
{ "type": "Feature", "id": 24, "properties": { "name": "Schwimmhalle Holzmarktstraße", "address": "Holzmarktstraße 51, 10179 Berlin, Germany" }, "geometry": { "type": "Point", "coordinates": [ 13.42627, 52.51314 ] } },
{ "type": "Feature", "id": 25, "properties": { "name": "Schwimmhalle Hüttenweg", "address": "Hüttenweg 41, 14195 Berlin, Germany" }, "geometry": { "type": "Point", "coordinates": [ 13.2676423, 52.453805 ] } },
{ "type": "Feature", "id": 26, "properties": { "name": "Schwimmhalle im FEZ", "address": "Str. Zum Fez 2, 12459 Berlin, Germany" }, "geometry": { "type": "Point", "coordinates": [ 13.5481708, 52.460925200000013 ] } },
{ "type": "Feature", "id": 27, "properties": { "name": "Schwimmhalle im Freizeitforum Marzahn", "address": "Marzahner Promenade 55, 12679 Berlin, Germany" }, "geometry": { "type": "Point", "coordinates": [ 13.556762, 52.546921 ] } },
{ "type": "Feature", "id": 28, "properties": { "name": "Schwimmhalle Kaulsdorf", "address": "Clara-Zetkin-Weg 13, 12619 Berlin, Germany" }, "geometry": { "type": "Point", "coordinates": [ 13.5857383, 52.5210117 ] } },
{ "type": "Feature", "id": 29, "properties": { "name": "Schwimmhalle Sewanstraße", "address": "Sewanstraße 229, 10319 Berlin, Germany" }, "geometry": { "type": "Point", "coordinates": [ 13.51577, 52.49584 ] } },
{ "type": "Feature", "id": 30, "properties": { "name": "Schwimmhalle Zingster Straße", "address": "Zingster Str. 16, 13051 Berlin, Germany" }, "geometry": { "type": "Point", "coordinates": [ 13.50317, 52.56631 ] } },
{ "type": "Feature", "id": 31, "properties": { "name": "Seebad Friedrichshagen", "address": "Müggelseedamm 216, 12587 Berlin, Germany" }, "geometry": { "type": "Point", "coordinates": [ 13.6305974, 52.4464486 ] } },
{ "type": "Feature", "id": 32, "properties": { "name": "Sommerbad Am Insulaner", "address": "Munsterdamm 80, 12169 Berlin, Germany" }, "geometry": { "type": "Point", "coordinates": [ 13.3508897, 52.4559633 ] } },
{ "type": "Feature", "id": 33, "properties": { "name": "Sommerbad Humboldthain", "address": "Wiesenstraße 1, 13357 Berlin, Germany" }, "geometry": { "type": "Point", "coordinates": [ 13.3812715, 52.544767 ] } },
{ "type": "Feature", "id": 34, "properties": { "name": "Sommerbad Kreuzberg", "address": "Prinzenstraße 113, 10969 Berlin, Germany" }, "geometry": { "type": "Point", "coordinates": [ 13.4057805, 52.4979092 ] } },
{ "type": "Feature", "id": 35, "properties": { "name": "Sommerbad Mariendorf", "address": "Rixdorfer Str. 130, 12109 Berlin, Germany" }, "geometry": { "type": "Point", "coordinates": [ 13.3978213, 52.4431446 ] } },
{ "type": "Feature", "id": 36, "properties": { "name": "Sommerbad Neukölln", "address": "Columbiadamm 160-190, 10965 Berlin, Germany" }, "geometry": { "type": "Point", "coordinates": [ 13.41637, 52.4797 ] } },
{ "type": "Feature", "id": 37, "properties": { "name": "Sommerbad Olympiastadion", "address": "Olympischer Platz 1, 14053 Berlin, Germany" }, "geometry": { "type": "Point", "coordinates": [ 13.2439461, 52.5152349 ] } },
{ "type": "Feature", "id": 38, "properties": { "name": "Sommerbad Pankow", "address": "Wolfshagener Str. 91, 13187 Berlin, Germany" }, "geometry": { "type": "Point", "coordinates": [ 13.4129914, 52.5733991 ] } },
{ "type": "Feature", "id": 39, "properties": { "name": "Sommerbad und Saunalandschaft Lichterfelde „Spucki“", "address": "Hindenburgdamm 9, 12203 Berlin, Germany" }, "geometry": { "type": "Point", "coordinates": [ 13.3125005, 52.4335448 ] } },
{ "type": "Feature", "id": 40, "properties": { "name": "Sommerbad Wilmersdorf", "address": "Forckenbeckstraße 14, 14199 Berlin, Germany" }, "geometry": { "type": "Point", "coordinates": [ 13.3034199, 52.4822857 ] } },
{ "type": "Feature", "id": 41, "properties": { "name": "Sommerbad Wuhlheide", "address": "Treskowallee 211, 12459 Berlin, Germany" }, "geometry": { "type": "Point", "coordinates": [ 13.5167106, 52.4719707 ] } },
{ "type": "Feature", "id": 42, "properties": { "name": "Sport- und Lehrschwimmhalle Schöneberg", "address": "Sachsendamm 11, 10829 Berlin, Germany" }, "geometry": { "type": "Point", "coordinates": [ 13.3561531, 52.476293899999988 ] } },
{ "type": "Feature", "id": 43, "properties": { "name": "Sportbad Britz", "address": "Kleiberweg 3, 12359 Berlin, Germany" }, "geometry": { "type": "Point", "coordinates": [ 13.4738975, 52.440124399999988 ] } },
{ "type": "Feature", "id": 44, "properties": { "name": "SSE Schwimm- und Sprunghalle im Europapark", "address": "Paul-Heyse-Straße 26, 10407 Berlin, Germany" }, "geometry": { "type": "Point", "coordinates": [ 13.450184, 52.530817 ] } },
{ "type": "Feature", "id": 45, "properties": { "name": "Stadtbad Charlottenburg  „Alte Halle\"", "address": "Krumme Str. 10, 10585 Berlin, Germany" }, "geometry": { "type": "Point", "coordinates": [ 13.3091139, 52.5145032 ] } },
{ "type": "Feature", "id": 46, "properties": { "name": "Stadtbad Charlottenburg „Neue Halle“", "address": "Krumme Str. 9, 10585 Berlin, Germany" }, "geometry": { "type": "Point", "coordinates": [ 13.3094633, 52.5146824 ] } },
{ "type": "Feature", "id": 47, "properties": { "name": "Stadtbad Lankwitz", "address": "Leonorenstraße 39, 12247 Berlin, Germany" }, "geometry": { "type": "Point", "coordinates": [ 13.3433999, 52.4419784 ] } },
{ "type": "Feature", "id": 48, "properties": { "name": "Stadtbad Märkisches Viertel", "address": "Wilhelmsruher Damm 142d, 13439 Berlin, Germany" }, "geometry": { "type": "Point", "coordinates": [ 13.35314, 52.59839 ] } },
{ "type": "Feature", "id": 49, "properties": { "name": "Stadtbad Mitte", "address": "Gartenstraße 5, 10115 Berlin, Germany" }, "geometry": { "type": "Point", "coordinates": [ 13.392537, 52.529663 ] } },
{ "type": "Feature", "id": 50, "properties": { "name": "Stadtbad Neukölln", "address": "Ganghoferstraße 3, 12043 Berlin, Germany" }, "geometry": { "type": "Point", "coordinates": [ 13.4399617, 52.4792026 ] } },
{ "type": "Feature", "id": 51, "properties": { "name": "Stadtbad Oderberger Straße", "address": "Oderberger Str. 57, 10435 Berlin, Germany" }, "geometry": { "type": "Point", "coordinates": [ 13.410289, 52.5377364 ] } },
{ "type": "Feature", "id": 52, "properties": { "name": "Stadtbad Schöneberg", "address": "Hauptstraße 38, 10827 Berlin, Germany" }, "geometry": { "type": "Point", "coordinates": [ 13.3513101, 52.48452 ] } },
{ "type": "Feature", "id": 53, "properties": { "name": "Stadtbad Spandau Nord", "address": "Radelandstraße 1, 13589 Berlin, Germany" }, "geometry": { "type": "Point", "coordinates": [ 13.1945503, 52.554829700000013 ] } },
{ "type": "Feature", "id": 54, "properties": { "name": "Stadtbad Tempelhof", "address": "Götzstraße 14, 12099 Berlin, Germany" }, "geometry": { "type": "Point", "coordinates": [ 13.3895302, 52.4642443 ] } },
{ "type": "Feature", "id": 55, "properties": { "name": "Stadtbad Tiergarten", "address": "Seydlitzstraße 7, 10557 Berlin, Germany" }, "geometry": { "type": "Point", "coordinates": [ 13.36155, 52.52736 ] } },
{ "type": "Feature", "id": 56, "properties": { "name": "Stadtbad Wilmersdorf I", "address": "Mecklenburgische Str. 80, 10713 Berlin, Germany" }, "geometry": { "type": "Point", "coordinates": [ 13.3150046, 52.4812319 ] } },
{ "type": "Feature", "id": 57, "properties": { "name": "Stadtbad Wilmersdorf II", "address": "Fritz-Wildung-Straße 7, 14199 Berlin, Germany" }, "geometry": { "type": "Point", "coordinates": [ 13.3013053, 52.4859664 ] } },
{ "type": "Feature", "id": 58, "properties": { "name": "Strandbad Grünau", "address": "Sportpromenade 9, 12527 Berlin, Germany" }, "geometry": { "type": "Point", "coordinates": [ 13.6056755, 52.4087255 ] } },
{ "type": "Feature", "id": 59, "properties": { "name": "Strandbad Müggelsee", "address": "Fürstenwalder Damm 838, 12589 Berlin, Germany" }, "geometry": { "type": "Point", "coordinates": [ 13.6670781, 52.4477015 ] } },
{ "type": "Feature", "id": 60, "properties": { "name": "Strandbad Plötzensee", "address": "Nordufer 26, 13351 Berlin, Germany" }, "geometry": { "type": "Point", "coordinates": [ 13.3291438, 52.543253 ] } },
{ "type": "Feature", "id": 61, "properties": { "name": "Strandbad Tegeler See", "address": "Schwarzer Weg 21, 13505 Berlin, Germany" }, "geometry": { "type": "Point", "coordinates": [ 13.24425, 52.57828 ] } },
{ "type": "Feature", "id": 62, "properties": { "name": "Strandbad Wannsee", "address": "Wannseebadweg 25, 14129 Berlin, Germany" }, "geometry": { "type": "Point", "coordinates": [ 13.1794578, 52.4381518 ] } },
{ "type": "Feature", "id": 63, "properties": { "name": "Strandbad Weißensee", "address": "13086 Berlin, Germany" }, "geometry": { "type": "Point", "coordinates": [ 13.4466477, 52.554561 ] } },
{ "type": "Feature", "id": 64, "properties": { "name": "Strandbad Wendenschloss", "address": "Möllhausenufer 30, 12557 Berlin, Germany" }, "geometry": { "type": "Point", "coordinates": [ 13.59942, 52.41532 ] } }
]
}
